[
  {
    "id": "clifton-quarry",
    "name": "Clifton Quarry",
    "contact_name": "John Smith",
    "email": "contact@cliftonquarry.com",
    "phone": "254-675-1234",
    "address": "123 Quarry Road",
    "city": "Clifton",
    "state": "TX",
    "zip_code": "76634",
    "latitude": 31.7813,
    "longitude": -97.5778,
    "txdot_certified": true,
    "lat_certified": false,
    "delivery_radius_miles": 50,
    "materials_offered": ["GRVL-RB", "LMST-CR", "GRVL-TOP", "CRSH-RUN"],
    "status": "active"
  },
  {
    "id": "bosque-river-pit",
    "name": "Bosque River Pit",
    "contact_name": "Mary Johnson",
    "email": "info@bosqueriver.com",
    "phone": "254-675-5678",
    "address": "456 River Road",
    "city": "Meridian",
    "state": "TX",
    "zip_code": "76665",
    "latitude": 31.8200,
    "longitude": -97.6100,
    "txdot_certified": true,
    "lat_certified": false,
    "delivery_radius_miles": 40,
    "materials_offered": ["CALC-STD", "CLAY-FIL", "GRVL-PEA"],
    "status": "active"
  },
  {
    "id": "central-tx-stone",
    "name": "Central Texas Stone & Aggregate",
    "contact_name": "Robert Davis",
    "email": "sales@centraltxstone.com",
    "phone": "254-580-1000",
    "address": "789 Aggregate Blvd",
    "city": "Waco",
    "state": "TX",
    "zip_code": "76701",
    "latitude": 31.5493,
    "longitude": -97.1467,
    "txdot_certified": true,
    "lat_certified": false,
    "delivery_radius_miles": 75,
    "materials_offered": ["FLEX-12", "GRVL-RB", "LMST-CR", "CRSH-RUN", "HMAC-STD"],
    "status": "active"
  },
  {
    "id": "lat-supplier-001",
    "name": "Texas Lime Solutions",
    "contact_name": "Patricia Wilson",
    "email": "orders@texaslime.com",
    "phone": "512-555-2000",
    "address": "1001 Lime Street",
    "city": "Temple",
    "state": "TX",
    "zip_code": "76501",
    "latitude": 31.0982,
    "longitude": -97.3428,
    "txdot_certified": true,
    "lat_certified": true,
    "delivery_radius_miles": 100,
    "materials_offered": ["LIME-SLR", "LIME-QK"],
    "status": "active"
  },
  {
    "id": "loftin-dirt",
    "name": "Loftin Dirt Works",
    "contact_name": "Mike Loftin",
    "email": "mike@loftindirt.com",
    "phone": "254-675-9999",
    "address": "County Road 1234",
    "city": "Valley Mills",
    "state": "TX",
    "zip_code": "76689",
    "latitude": 31.6604,
    "longitude": -97.4720,
    "txdot_certified": false,
    "lat_certified": false,
    "delivery_radius_miles": 30,
    "materials_offered": ["GRVL-RB", "CLAY-FIL", "CALC-STD"],
    "status": "active"
  },
  {
    "id": "morgan-quarry",
    "name": "Morgan Quarry & Materials",
    "contact_name": "Sarah Morgan",
    "email": "info@morganquarry.com",
    "phone": "254-622-5500",
    "address": "500 Quarry Lane",
    "city": "Morgan",
    "state": "TX",
    "zip_code": "76671",
    "latitude": 32.0000,
    "longitude": -97.6000,
    "txdot_certified": true,
    "lat_certified": false,
    "delivery_radius_miles": 60,
    "materials_offered": ["GRVL-PEA", "LMST-CR", "GRVL-TOP"],
    "status": "active"
  },
  {
    "id": "waco-concrete",
    "name": "Waco Concrete & Materials",
    "contact_name": "James Thompson",
    "email": "sales@wacoconcrete.com",
    "phone": "254-753-8000",
    "address": "2500 Industrial Drive",
    "city": "Waco",
    "state": "TX",
    "zip_code": "76708",
    "latitude": 31.5333,
    "longitude": -97.1833,
    "txdot_certified": true,
    "lat_certified": false,
    "delivery_radius_miles": 50,
    "materials_offered": ["CMNT-PRT", "HMAC-STD", "FLEX-12"],
    "status": "active"
  }
]
